{"_type": "highSchool", "_id": "hs-1", "name": "修猷館高等学校", "slug": {"_type": "slug", "current": "shuyukan"}, "location": {"_type": "geopoint", "lat": 33.583592, "lng": 130.360144}, "rank": 1, "deviationValue": 73, "description": "福岡県第6学区トップ（公立御三家）。自由な校風と高い進学実績が特徴です。「大濠・西新」エリアから通いやすいです。"}
{"_type": "highSchool", "_id": "hs-2", "name": "筑紫丘高等学校", "slug": {"_type": "slug", "current": "chikushigaoka"}, "location": {"_type": "geopoint", "lat": 33.546304, "lng": 130.419747}, "rank": 2, "deviationValue": 72, "description": "福岡県第5学区トップ（公立御三家）。「平尾・高宮」エリア等、福岡市南部や西鉄沿線からのアクセスが良好です。"}
{"_type": "highSchool", "_id": "hs-3", "name": "福岡高等学校", "slug": {"_type": "slug", "current": "fukuoka-hs"}, "location": {"_type": "geopoint", "lat": 33.605335, "lng": 130.419080}, "rank": 3, "deviationValue": 72, "description": "福岡県第4学区トップ（公立御三家）。文武両道、「千早」等の東区エリアや博多エリアからの通学に便利です。"}
{"_type": "highSchool", "_id": "hs-4", "name": "福岡大学附属大濠高等学校", "slug": {"_type": "slug", "current": "ohori-hs"}, "location": {"_type": "geopoint", "lat": 33.583626, "lng": 130.375833}, "rank": 4, "deviationValue": 71, "description": "県内屈指の進学実績を誇る私立高校（共学化）。大濠公園のすぐ隣で、素晴らしい学習環境が整っています。"}
{"_type": "highSchool", "_id": "hs-5", "name": "西南学院高等学校", "slug": {"_type": "slug", "current": "seinan-gakuin"}, "location": {"_type": "geopoint", "lat": 33.588612, "lng": 130.360777}, "rank": 5, "deviationValue": 70, "description": "キリスト教主義の私立名門校。「西新・百道」エリアにあり、周辺は福岡市有数の文教地区として知られています。"}
{"_type": "highSchool", "_id": "hs-6", "name": "城南高等学校", "slug": {"_type": "slug", "current": "jonan-hs"}, "location": {"_type": "geopoint", "lat": 33.570776, "lng": 130.368310}, "rank": 6, "deviationValue": 69, "description": "第6学区の進学校。七隈線「茶山駅」近くで、城南区・早良区から通いやすく、理数コースが特に人気です。"}
{"_type": "highSchool", "_id": "hs-7", "name": "春日高等学校", "slug": {"_type": "slug", "current": "kasuga-hs"}, "location": {"_type": "geopoint", "lat": 33.526270, "lng": 130.463990}, "rank": 7, "deviationValue": 69, "description": "第5学区の進学校。春日市にありますが、福岡市南区からも多数の生徒が通う人気校です。"}
{"_type": "highSchool", "_id": "hs-8", "name": "香住丘高等学校", "slug": {"_type": "slug", "current": "kasumigaoka-hs"}, "location": {"_type": "geopoint", "lat": 33.666986, "lng": 130.439167}, "rank": 8, "deviationValue": 68, "description": "第4学区の進学校。東区に位置し、英語科・数理コミュニケーション科など多彩な学科を備えます。"}
{"_type": "highSchool", "_id": "hs-9", "name": "筑前高等学校", "slug": {"_type": "slug", "current": "chikuzen-hs"}, "location": {"_type": "geopoint", "lat": 33.568161, "lng": 130.316886}, "rank": 9, "deviationValue": 65, "description": "第6学区。西区に位置し、活発な部活動と着実な進学実績を兼ね備えた県立高校です。"}
{"_type": "highSchool", "_id": "hs-10", "name": "福岡中央高等学校", "slug": {"_type": "slug", "current": "fukuoka-chuo-hs"}, "location": {"_type": "geopoint", "lat": 33.578642, "lng": 130.400569}, "rank": 10, "deviationValue": 64, "description": "中央区平尾に位置し、天神へのアクセスも抜群。「薬院・平尾」エリアのファミリーに人気の進学校です。"}
